% program   : RTKPOST ver.2.4.2
% inp file  : C:\Users\ragha\OneDrive\Desktop\gcqt\Order_1\DELH001G00.26o
% inp file  : C:\Users\ragha\OneDrive\Desktop\gcqt\Order_1\DELH001G00.26n
% obs start : 2026/01/01 06:00:00.0 GPST (week2399 367200.0s)
% obs end   : 2026/01/01 08:13:19.0 GPST (week2399 375199.0s)
% pos mode  : single
% elev mask : 15.0 deg
% ionos opt : broadcast
% tropo opt : saastamoinen
% ephemeris : broadcast
%
% (lat/lon/height=WGS84/ellipsoidal,Q=1:fix,2:float,3:sbas,4:dgps,5:single,6:ppp,ns=# of satellites)
%  GPST                  latitude(deg) longitude(deg)  height(m)   Q  ns   sdn(m)   sde(m)   sdu(m)  sdne(m)  sdeu(m)  sdun(m) age(s)  ratio
2026/01/01 06:00:00.000   28.580656476    77.090547019    167.8170   5   8   4.6625   4.5499  12.1429   0.8237   -3.4666   3.1446  0.00    0.0
2026/01/01 06:00:01.000   28.580723844    77.090619749    167.6191   5   8   4.6237   4.5707  12.2142   0.8403   -3.5012   3.1526  0.00    0.0
2026/01/01 06:00:02.000   28.580791210    77.090692455    167.6778   5   8   4.6169   4.5588  12.3788   0.8224   -3.4973   3.1088  0.00    0.0
2026/01/01 06:00:03.000   28.580858612    77.090765159    167.8267   5   9   4.5794   4.6404  12.1795   0.8468   -3.4878   3.1690  0.00    0.0
2026/01/01 06:00:04.000   28.580925963    77.090837944    167.5420   5  10   4.6244   4.5485  12.1112   0.8563   -3.5211   3.1467  0.00    0.0
2026/01/01 06:00:05.000   28.580993279    77.090910641    167.5265   5   9   4.7508   4.5402  11.8710   0.8432   -3.5024   3.1693  0.00    0.0
2026/01/01 06:00:06.000   28.581060680    77.090983318    167.7140   5   8   4.6334   4.6551  12.3720   0.8244   -3.5264   3.1434  0.00    0.0
2026/01/01 06:00:07.000   28.581127989    77.091055974    167.7209   5   8   4.7026   4.5095  12.3433   0.8038   -3.4910   3.1799  0.00    0.0
2026/01/01 06:00:08.000   28.581195296    77.091128655    167.5129   5   7   4.6527   4.5386  12.3040   0.8096   -3.4714   3.1545  0.00    0.0
2026/01/01 06:00:09.000   28.581262685    77.091201315    167.6472   5  10   4.6529   4.4949  12.2898   0.8301   -3.4650   3.1403  0.00    0.0
2026/01/01 06:00:10.000   28.581329961    77.091274015    167.8063   5   9   4.5683   4.5549  12.2770   0.8361   -3.4684   3.1686  0.00    0.0
2026/01/01 06:00:11.000   28.581397239    77.091346596    167.8395   5   9   4.6419   4.5381  12.0705   0.8383   -3.4733   3.1504  0.00    0.0
2026/01/01 06:00:12.000   28.581464460    77.091419237    167.9960   5   8   4.6419   4.5875  12.3776   0.8526   -3.4723   3.1732  0.00    0.0
2026/01/01 06:00:13.000   28.581531728    77.091491842    167.7266   5   8   4.6518   4.6281  12.1297   0.8363   -3.4698   3.1795  0.00    0.0
2026/01/01 06:00:14.000   28.581598960    77.091564395    167.6859   5   8   4.6328   4.6425  12.1671   0.8143   -3.5029   3.1486  0.00    0.0
2026/01/01 06:00:15.000   28.581666136    77.091636957    167.6279   5   7   4.6590   4.5674  12.3051   0.8256   -3.5396   3.1562  0.00    0.0
2026/01/01 06:00:16.000   28.581733288    77.091709445    167.7428   5   9   4.6414   4.5532  11.8092   0.8239   -3.4684   3.1678  0.00    0.0
2026/01/01 06:00:17.000   28.581800498    77.091781969    167.4062   5  10   4.6072   4.5602  12.5671   0.8301   -3.4787   3.1570  0.00    0.0
2026/01/01 06:00:18.000   28.581867587    77.091854458    167.7141   5  10   4.6816   4.5789  12.0189   0.8138   -3.4762   3.1487  0.00    0.0
2026/01/01 06:00:19.000   28.581934625    77.091926924    167.7605   5   9   4.7224   4.5299  11.9947   0.8434   -3.4864   3.1153  0.00    0.0
2026/01/01 06:00:20.000   28.582001718    77.091999306    167.6683   5  10   4.7077   4.5531  12.3587   0.8214   -3.5047   3.1512  0.00    0.0
2026/01/01 06:00:21.000   28.582068741    77.092071674    167.6489   5   7   4.7899   4.5407  12.2326   0.8341   -3.4898   3.1717  0.00    0.0
2026/01/01 06:00:22.000   28.582135723    77.092144048    167.6467   5  10   4.6610   4.5673  12.3311   0.8085   -3.4738   3.1789  0.00    0.0
2026/01/01 06:00:23.000   28.582202633    77.092216405    167.6220   5   7   4.6677   4.4739  12.1185   0.8191   -3.4716   3.1538  0.00    0.0
2026/01/01 06:00:24.000   28.582269572    77.092288596    167.6891   5  10   4.7028   4.5448  11.8390   0.8106   -3.4705   3.1695  0.00    0.0
2026/01/01 06:00:25.000   28.582336412    77.092360830    167.8802   5   9   4.6744   4.5284  12.1061   0.8406   -3.4687   3.1501  0.00    0.0
2026/01/01 06:00:26.000   28.582403276    77.092433070    167.6632   5   9   4.5736   4.5352  12.3887   0.8320   -3.4988   3.1308  0.00    0.0
2026/01/01 06:00:27.000   28.582470040    77.092505195    167.7504   5  10   4.7205   4.5659  12.1212   0.8377   -3.5001   3.1818  0.00    0.0
2026/01/01 06:00:28.000   28.582536798    77.092577282    167.7681   5   8   4.6387   4.5596  11.9793   0.8130   -3.5135   3.1588  0.00    0.0
2026/01/01 06:00:29.000   28.582603454    77.092649349    167.6879   5   9   4.5902   4.5032  12.2364   0.8387   -3.5268   3.1519  0.00    0.0
2026/01/01 06:00:30.000   28.582670114    77.092721367    167.8412   5   7   4.6206   4.5137  12.4511   0.8583   -3.4808   3.1763  0.00    0.0
2026/01/01 06:00:31.000   28.582736692    77.092793325    167.9103   5  10   4.6658   4.5341  12.2121   0.8378   -3.4736   3.1252  0.00    0.0
2026/01/01 06:00:32.000   28.582803252    77.092865252    167.7599   5   8   4.7168   4.6408  12.2627   0.8368   -3.4954   3.1265  0.00    0.0
2026/01/01 06:00:33.000   28.582869736    77.092937143    167.1969   5   7   4.6133   4.5565  11.9760   0.8399   -3.4657   3.1267  0.00    0.0
2026/01/01 06:00:34.000   28.582936156    77.093008896    167.7968   5   8   4.7381   4.5645  12.4075   0.8096   -3.4698   3.1172  0.00    0.0
2026/01/01 06:00:35.000   28.583002533    77.093080664    167.5122   5   7   4.7149   4.6131  12.2770   0.8237   -3.4795   3.1805  0.00    0.0
2026/01/01 06:00:36.000   28.583068824    77.093152355    167.6328   5   9   4.6602   4.5993  12.1519   0.8370   -3.4989   3.1364  0.00    0.0
2026/01/01 06:00:37.000   28.583135122    77.093224004    167.5726   5  10   4.7298   4.5358  12.3163   0.8043   -3.4567   3.1939  0.00    0.0
2026/01/01 06:00:38.000   28.583201289    77.093295573    167.7329   5   9   4.6995   4.5737  11.7801   0.8353   -3.4638   3.1425  0.00    0.0
2026/01/01 06:00:39.000   28.583267413    77.093367113    167.8455   5  10   4.6687   4.5412  12.2388   0.8366   -3.5059   3.1522  0.00    0.0
2026/01/01 06:00:40.000   28.583333475    77.093438516    167.7491   5   7   4.6983   4.4858  12.3393   0.8045   -3.4903   3.1538  0.00    0.0
2026/01/01 06:00:41.000   28.583399501    77.093509983    167.5027   5   7   4.5758   4.5622  12.2298   0.8157   -3.5208   3.1517  0.00    0.0
2026/01/01 06:00:42.000   28.583465405    77.093581249    167.8618   5   7   4.7041   4.5506  12.3422   0.8362   -3.4689   3.1504  0.00    0.0
2026/01/01 06:00:43.000   28.583531258    77.093652506    167.6906   5  10   4.6080   4.5994  12.1230   0.8422   -3.4518   3.1487  0.00    0.0
2026/01/01 06:00:44.000   28.583597039    77.093723697    167.4133   5  10   4.6349   4.5804  12.7889   0.8179   -3.4826   3.1537  0.00    0.0
2026/01/01 06:00:45.000   28.583662775    77.093794828    167.5674   5   9   4.6955   4.5304  12.4764   0.7982   -3.5078   3.1492  0.00    0.0
2026/01/01 06:00:46.000   28.583728408    77.093865832    167.6703   5   8   4.7527   4.7515  12.0246   0.8189   -3.4869   3.1793  0.00    0.0
2026/01/01 06:00:47.000   28.583793984    77.093936772    167.7487   5   7   4.6540   4.5762  12.3662   0.8502   -3.4674   3.1400  0.00    0.0
2026/01/01 06:00:48.000   28.583859393    77.094007702    167.7763   5  10   4.6910   4.5993  12.2638   0.8284   -3.4720   3.1437  0.00    0.0
2026/01/01 06:00:49.000   28.583924856    77.094078494    167.9471   5   9   4.7097   4.5712  12.2685   0.8416   -3.5056   3.1534  0.00    0.0
2026/01/01 06:00:50.000   28.583990205    77.094149216    167.5593   5  10   4.5691   4.4994  12.4743   0.8182   -3.4832   3.1304  0.00    0.0
2026/01/01 06:00:51.000   28.584055405    77.094219859    168.2935   5   9   4.6488   4.5901  12.1828   0.8296   -3.4807   3.1770  0.00    0.0
2026/01/01 06:00:52.000   28.584120550    77.094290421    167.8827   5   9   4.6845   4.5821  12.5818   0.8177   -3.4825   3.1386  0.00    0.0
2026/01/01 06:00:53.000   28.584185664    77.094360934    168.0776   5  10   4.6368   4.5330  12.4057   0.8653   -3.4904   3.1707  0.00    0.0
2026/01/01 06:00:54.000   28.584250661    77.094431304    167.9138   5   9   4.6195   4.6054  12.7919   0.8635   -3.4532   3.1635  0.00    0.0
2026/01/01 06:00:55.000   28.584315495    77.094501676    167.7492   5  10   4.7010   4.6263  12.4395   0.8860   -3.5020   3.1442  0.00    0.0
2026/01/01 06:00:56.000   28.584380260    77.094571854    167.8755   5   8   4.5923   4.6269  12.1696   0.8375   -3.4680   3.1460  0.00    0.0
2026/01/01 06:00:57.000   28.584445023    77.094641973    168.0665   5   9   4.6960   4.5916  12.0060   0.8526   -3.4521   3.1555  0.00    0.0
2026/01/01 06:00:58.000   28.584509624    77.094712045    167.7161   5   9   4.6300   4.5342  12.3288   0.8417   -3.4687   3.1344  0.00    0.0
2026/01/01 06:00:59.000   28.584574068    77.094781967    167.8990   5   8   4.6863   4.5475  12.1260   0.8469   -3.4554   3.1429  0.00    0.0
2026/01/01 06:01:00.000   28.584638513    77.094851828    167.8457   5   7   4.7122   4.5148  12.4395   0.8306   -3.4601   3.1574  0.00    0.0
2026/01/01 06:01:01.000   28.584702836    77.094921588    167.7082   5   9   4.6135   4.5427  12.5248   0.8234   -3.4911   3.1940  0.00    0.0
2026/01/01 06:01:02.000   28.584767060    77.094991231    167.9731   5   7   4.6497   4.5775  12.2034   0.8126   -3.4493   3.1593  0.00    0.0
2026/01/01 06:01:03.000   28.584831182    77.095060786    167.9298   5   7   4.5898   4.5748  12.4030   0.8033   -3.4934   3.1431  0.00    0.0
2026/01/01 06:01:04.000   28.584895141    77.095130235    167.6173   5   8   4.5797   4.6118  12.1642   0.8485   -3.4704   3.1291  0.00    0.0
2026/01/01 06:01:05.000   28.584959090    77.095199627    167.7857   5  10   4.7653   4.5069  12.3585   0.8340   -3.4504   3.1269  0.00    0.0
2026/01/01 06:01:06.000   28.585022839    77.095268833    167.8406   5   9   4.5945   4.5889  12.1964   0.8463   -3.4840   3.1267  0.00    0.0
2026/01/01 06:01:07.000   28.585086545    77.095337972    167.9176   5  10   4.6564   4.5949  12.1423   0.7945   -3.4511   3.1504  0.00    0.0
2026/01/01 06:01:08.000   28.585150091    77.095406957    168.0010   5  10   4.7066   4.6145  12.5070   0.8258   -3.4535   3.1592  0.00    0.0
2026/01/01 06:01:09.000   28.585213551    77.095475938    167.7012   5  10   4.7134   4.5386  12.5175   0.8095   -3.4272   3.1832  0.00    0.0
2026/01/01 06:01:10.000   28.585276940    77.095544765    168.0932   5  10   4.7560   4.6003  11.8327   0.8404   -3.4942   3.1410  0.00    0.0
2026/01/01 06:01:11.000   28.585340101    77.095613459    168.2364   5   7   4.6408   4.4973  12.1108   0.8162   -3.4746   3.1500  0.00    0.0
2026/01/01 06:01:12.000   28.585403210    77.095682019    167.8632   5   8   4.6301   4.6219  12.2516   0.8349   -3.4549   3.1009  0.00    0.0
2026/01/01 06:01:13.000   28.585466217    77.095750462    167.5012   5   8   4.6644   4.5452  12.4617   0.8415   -3.4778   3.1496  0.00    0.0
2026/01/01 06:01:14.000   28.585529124    77.095818853    168.0781   5   7   4.6742   4.5995  12.6053   0.8217   -3.4495   3.1344  0.00    0.0
2026/01/01 06:01:15.000   28.585591887    77.095887113    167.7909   5   9   4.6244   4.5506  11.8907   0.8251   -3.4672   3.1850  0.00    0.0
2026/01/01 06:01:16.000   28.585654497    77.095955213    167.8717   5   9   4.7504   4.5467  12.3579   0.8223   -3.4523   3.1698  0.00    0.0
2026/01/01 06:01:17.000   28.585717021    77.096023220    167.8594   5   8   4.6633   4.5360  12.5224   0.8490   -3.4662   3.1641  0.00    0.0
2026/01/01 06:01:18.000   28.585779379    77.096091033    167.5902   5   9   4.6589   4.6539  12.0552   0.8305   -3.4670   3.1561  0.00    0.0
2026/01/01 06:01:19.000   28.585841644    77.096158885    167.9169   5   8   4.6970   4.6707  12.1687   0.8208   -3.4737   3.1941  0.00    0.0
2026/01/01 06:01:20.000   28.585903748    77.096226484    167.5848   5  10   4.6250   4.6738  12.5075   0.8328   -3.5022   3.1281  0.00    0.0
2026/01/01 06:01:21.000   28.585965751    77.096293950    167.8915   5   8   4.6106   4.5800  12.1469   0.8616   -3.4787   3.1397  0.00    0.0
2026/01/01 06:01:22.000   28.586027630    77.096361291    167.2084   5   9   4.5524   4.5670  12.4030   0.8301   -3.4416   3.1720  0.00    0.0
2026/01/01 06:01:23.000   28.586089333    77.096428553    167.7208   5   8   4.6086   4.4937  12.3311   0.8507   -3.5038   3.1499  0.00    0.0
2026/01/01 06:01:24.000   28.586150960    77.096495637    167.3260   5   7   4.6361   4.5545  12.2321   0.8195   -3.4424   3.1722  0.00    0.0
2026/01/01 06:01:25.000   28.586212355    77.096562636    167.7681   5   8   4.7385   4.5077  12.1631   0.8725   -3.4807   3.1787  0.00    0.0
2026/01/01 06:01:26.000   28.586273677    77.096629436    167.9511   5   9   4.6434   4.5533  12.1767   0.8199   -3.4717   3.1607  0.00    0.0
2026/01/01 06:01:27.000   28.586334837    77.096696172    167.8794   5  10   4.7247   4.5833  11.9818   0.8476   -3.4628   3.1536  0.00    0.0
2026/01/01 06:01:28.000   28.586395846    77.096762722    167.5260   5  10   4.6041   4.4859  12.6147   0.8376   -3.4565   3.1336  0.00    0.0
2026/01/01 06:01:29.000   28.586456762    77.096829109    168.2487   5   8   4.5985   4.5762  12.1219   0.7856   -3.4832   3.1409  0.00    0.0
2026/01/01 06:01:30.000   28.586517466    77.096895396    167.8262   5  10   4.7583   4.4566  12.2365   0.8135   -3.4684   3.1661  0.00    0.0
2026/01/01 06:01:31.000   28.586578124    77.096961528    167.7832   5  10   4.6846   4.5516  12.1260   0.8318   -3.4653   3.1673  0.00    0.0
2026/01/01 06:01:32.000   28.586638532    77.097027523    167.6688   5   8   4.6888   4.5670  12.3874   0.8016   -3.4661   3.1335  0.00    0.0
2026/01/01 06:01:33.000   28.586698792    77.097093376    168.0588   5  10   4.5995   4.5830  12.3034   0.8468   -3.4399   3.1255  0.00    0.0
2026/01/01 06:01:34.000   28.586758967    77.097159103    167.6254   5   7   4.7205   4.5743  12.5664   0.8621   -3.4672   3.1760  0.00    0.0
2026/01/01 06:01:35.000   28.586818942    77.097224658    168.0832   5   8   4.7371   4.4940  12.1596   0.8292   -3.5089   3.1555  0.00    0.0
2026/01/01 06:01:36.000   28.586878821    77.097290032    167.7666   5   8   4.6051   4.4935  12.4106   0.8274   -3.4493   3.1727  0.00    0.0
2026/01/01 06:01:37.000   28.586938479    77.097355280    167.8989   5  10   4.6518   4.5594  12.4851   0.8380   -3.4758   3.1641  0.00    0.0
2026/01/01 06:01:38.000   28.586998015    77.097420380    167.4515   5   8   4.6529   4.6835  12.1476   0.8123   -3.4903   3.1386  0.00    0.0
2026/01/01 06:01:39.000   28.587057391    77.097485307    167.6660   5   7   4.7397   4.5265  12.3652   0.8146   -3.4984   3.1255  0.00    0.0
2026/01/01 06:01:40.000   28.587116591    77.097550065    167.8046   5  10   4.6979   4.5797  12.5298   0.8124   -3.4613   3.1677  0.00    0.0
2026/01/01 06:01:41.000   28.587175656    77.097614738    167.5893   5   8   4.6568   4.6009  12.0320   0.8362   -3.4711   3.1264  0.00    0.0
2026/01/01 06:01:42.000   28.587234544    77.097679159    167.9735   5   8   4.6261   4.5442  12.1717   0.8356   -3.4853   3.1492  0.00    0.0
2026/01/01 06:01:43.000   28.587293199    77.097743508    167.9439   5   9   4.5564   4.5266  12.5449   0.8120   -3.4847   3.1706  0.00    0.0
2026/01/01 06:01:44.000   28.587351790    77.097807643    167.9045   5  10   4.6240   4.5082  12.3616   0.8266   -3.4822   3.1413  0.00    0.0
2026/01/01 06:01:45.000   28.587410117    77.097871637    167.6685   5   7   4.6635   4.5299  12.3355   0.8141   -3.5244   3.1246  0.00    0.0
2026/01/01 06:01:46.000   28.587468379    77.097935457    167.7390   5   8   4.6479   4.5947  11.7927   0.8541   -3.4851   3.1270  0.00    0.0
2026/01/01 06:01:47.000   28.587526421    77.097999131    167.6311   5  10   4.6702   4.6115  12.3446   0.8307   -3.4323   3.1452  0.00    0.0
2026/01/01 06:01:48.000   28.587584311    77.098062576    168.1845   5   9   4.5916   4.6524  12.2450   0.8490   -3.4824   3.1862  0.00    0.0
2026/01/01 06:01:49.000   28.587641961    77.098125936    167.7665   5  10   4.7748   4.5333  12.3563   0.8257   -3.4477   3.1580  0.00    0.0
2026/01/01 06:01:50.000   28.587699512    77.098189072    167.8433   5  10   4.6721   4.5389  11.8341   0.8164   -3.4558   3.1506  0.00    0.0
2026/01/01 06:01:51.000   28.587756851    77.098252002    167.9065   5  10   4.6392   4.5413  12.4594   0.8457   -3.4602   3.1455  0.00    0.0
2026/01/01 06:01:52.000   28.587814039    77.098314822    167.6376   5   7   4.6514   4.5513  11.8791   0.8390   -3.4610   3.1580  0.00    0.0
2026/01/01 06:01:53.000   28.587871030    77.098377489    168.0146   5  10   4.6651   4.5736  12.2517   0.8214   -3.4843   3.1550  0.00    0.0
2026/01/01 06:01:54.000   28.587927812    77.098439927    167.5708   5   7   4.6212   4.5614  12.0200   0.7970   -3.4572   3.1517  0.00    0.0
2026/01/01 06:01:55.000   28.587984461    77.098502204    167.8220   5   7   4.5698   4.5458  12.1860   0.8112   -3.4541   3.1270  0.00    0.0
2026/01/01 06:01:56.000   28.588040948    77.098564268    167.8750   5   9   4.6142   4.6107  12.4154   0.8360   -3.4990   3.1692  0.00    0.0
2026/01/01 06:01:57.000   28.588097159    77.098626249    167.7125   5   7   4.6526   4.4081  12.3714   0.8242   -3.4751   3.1373  0.00    0.0
2026/01/01 06:01:58.000   28.588153266    77.098687907    168.0360   5  10   4.7322   4.5380  12.0998   0.7977   -3.5025   3.1489  0.00    0.0
2026/01/01 06:01:59.000   28.588209142    77.098749508    167.7198   5   7   4.7058   4.6044  12.2536   0.8331   -3.4293   3.1416  0.00    0.0
2026/01/01 06:02:00.000   28.588264832    77.098810849    167.3575   5   7   4.7305   4.5399  12.3997   0.8152   -3.5053   3.1511  0.00    0.0
2026/01/01 06:02:01.000   28.588320364    77.098872032    167.7454   5   8   4.7190   4.5551  12.1640   0.8249   -3.4718   3.1695  0.00    0.0
2026/01/01 06:02:02.000   28.588375716    77.098933056    167.7339   5   7   4.6636   4.5649  12.0932   0.8885   -3.4894   3.1547  0.00    0.0
2026/01/01 06:02:03.000   28.588430809    77.098993837    167.8436   5   7   4.7052   4.5975  11.9043   0.8168   -3.4726   3.1720  0.00    0.0
2026/01/01 06:02:04.000   28.588485723    77.099054476    167.5997   5   8   4.7268   4.5236  12.2084   0.8415   -3.4900   3.1567  0.00    0.0
2026/01/01 06:02:05.000   28.588540440    77.099114868    167.9983   5   7   4.7116   4.5866  12.1532   0.8322   -3.4734   3.1621  0.00    0.0
2026/01/01 06:02:06.000   28.588595020    77.099175109    167.6850   5   8   4.7262   4.5455  12.1027   0.8355   -3.4526   3.1459  0.00    0.0
2026/01/01 06:02:07.000   28.588649368    77.099235199    167.3337   5  10   4.6806   4.6178  12.0733   0.8729   -3.4431   3.1435  0.00    0.0
2026/01/01 06:02:08.000   28.588703492    77.099295055    167.8861   5   9   4.7576   4.6179  12.2403   0.8342   -3.4817   3.1691  0.00    0.0
2026/01/01 06:02:09.000   28.588757406    77.099354652    168.0576   5   8   4.6317   4.5508  11.9676   0.8337   -3.4941   3.1623  0.00    0.0
2026/01/01 06:02:10.000   28.588811182    77.099414123    167.9500   5   8   4.6314   4.6004  11.9615   0.8222   -3.4808   3.1805  0.00    0.0
2026/01/01 06:02:11.000   28.588864702    77.099473346    167.5346   5   8   4.6993   4.5454  12.4867   0.8368   -3.4614   3.1590  0.00    0.0
2026/01/01 06:02:12.000   28.588918031    77.099532432    167.9397   5  10   4.6892   4.6150  12.1399   0.8220   -3.4971   3.1586  0.00    0.0
2026/01/01 06:02:13.000   28.588971134    77.099591308    167.6812   5   7   4.6525   4.5888  12.2836   0.8311   -3.4334   3.1346  0.00    0.0
2026/01/01 06:02:14.000   28.589024059    77.099649910    167.6658   5   7   4.7140   4.4704  12.1785   0.8152   -3.4496   3.1485  0.00    0.0
2026/01/01 06:02:15.000   28.589076741    77.099708313    167.9155   5   9   4.6743   4.6203  12.4118   0.8128   -3.4648   3.1488  0.00    0.0
2026/01/01 06:02:16.000   28.589129264    77.099766572    167.6734   5   8   4.6985   4.5652  12.0782   0.8374   -3.4776   3.1250  0.00    0.0
2026/01/01 06:02:17.000   28.589181554    77.099824606    167.3383   5  10   4.7023   4.5744  12.5291   0.8351   -3.4790   3.1619  0.00    0.0
2026/01/01 06:02:18.000   28.589233607    77.099882412    167.7166   5  10   4.7182   4.5327  12.4645   0.8199   -3.4842   3.1606  0.00    0.0
2026/01/01 06:02:19.000   28.589285468    77.099940030    167.6990   5  10   4.6762   4.5870  12.2717   0.8467   -3.4571   3.1419  0.00    0.0
2026/01/01 06:02:20.000   28.589337108    77.099997459    167.7600   5   9   4.6164   4.5604  12.2941   0.8121   -3.4744   3.1477  0.00    0.0
2026/01/01 06:02:21.000   28.589388523    77.100054611    167.3811   5  10   4.5610   4.5353  12.1131   0.8086   -3.4661   3.1550  0.00    0.0
2026/01/01 06:02:22.000   28.589439726    77.100111562    167.9460   5   7   4.7003   4.5192  12.2265   0.7926   -3.5187   3.1205  0.00    0.0
2026/01/01 06:02:23.000   28.589490734    77.100168395    167.7411   5  10   4.6408   4.5945  12.2740   0.8371   -3.4863   3.1336  0.00    0.0
2026/01/01 06:02:24.000   28.589541443    77.100224904    167.8453   5   8   4.7029   4.5912  12.4560   0.8607   -3.4767   3.1557  0.00    0.0
2026/01/01 06:02:25.000   28.589592039    77.100281240    167.6913   5   9   4.6584   4.5542  12.3926   0.8139   -3.5017   3.1211  0.00    0.0
2026/01/01 06:02:26.000   28.589642325    77.100337339    167.7474   5  10   4.6274   4.6547  12.4697   0.8471   -3.5076   3.1064  0.00    0.0
2026/01/01 06:02:27.000   28.589692416    77.100393225    167.7055   5   8   4.6543   4.5381  11.9864   0.8405   -3.4732   3.1481  0.00    0.0
2026/01/01 06:02:28.000   28.589742283    77.100448883    167.4637   5  10   4.6231   4.5279  12.4594   0.8198   -3.4642   3.1329  0.00    0.0
2026/01/01 06:02:29.000   28.589791884    77.100504346    168.0885   5   7   4.6573   4.5548  11.8955   0.8286   -3.4681   3.1570  0.00    0.0
2026/01/01 06:02:30.000   28.589841318    77.100559558    167.6295   5   9   4.6366   4.5113  12.2864   0.8221   -3.4781   3.1990  0.00    0.0
2026/01/01 06:02:31.000   28.589890517    77.100614539    168.0962   5  10   4.6570   4.5009  12.7108   0.8132   -3.5192   3.1322  0.00    0.0
2026/01/01 06:02:32.000   28.589939506    77.100669345    167.2819   5   7   4.7254   4.5816  12.5319   0.8258   -3.5121   3.1474  0.00    0.0
2026/01/01 06:02:33.000   28.589988169    77.100723825    167.7362   5   8   4.5741   4.5866  12.6429   0.8115   -3.4810   3.1392  0.00    0.0
2026/01/01 06:02:34.000   28.590036661    77.100778188    167.4384   5  10   4.6974   4.5151  12.2874   0.8044   -3.4605   3.1476  0.00    0.0
2026/01/01 06:02:35.000   28.590084943    77.100832235    167.4763   5  10   4.7130   4.6756  12.4990   0.8366   -3.4769   3.1609  0.00    0.0
2026/01/01 06:02:36.000   28.590132973    77.100886105    167.6464   5   7   4.6896   4.5817  12.3080   0.8098   -3.4960   3.1502  0.00    0.0
2026/01/01 06:02:37.000   28.590180737    77.100939714    167.9822   5   7   4.5744   4.5874  12.2924   0.8117   -3.4879   3.1434  0.00    0.0
2026/01/01 06:02:38.000   28.590228216    77.100993082    167.8328   5   7   4.7054   4.5889  12.3418   0.7871   -3.4755   3.1664  0.00    0.0
2026/01/01 06:02:39.000   28.590275542    77.101046273    167.4119   5   8   4.6735   4.6132  12.1900   0.8291   -3.4740   3.1787  0.00    0.0
2026/01/01 06:02:40.000   28.590322613    77.101099200    167.7072   5   7   4.6501   4.6178  12.1574   0.7959   -3.4941   3.1679  0.00    0.0
2026/01/01 06:02:41.000   28.590369418    77.101151851    167.5143   5   7   4.6532   4.5686  12.1155   0.8487   -3.5111   3.1331  0.00    0.0
2026/01/01 06:02:42.000   28.590416031    77.101204278    167.4270   5  10   4.6350   4.5566  12.5069   0.8103   -3.4844   3.1471  0.00    0.0
2026/01/01 06:02:43.000   28.590462358    77.101256496    167.9685   5  10   4.6517   4.6220  12.3799   0.8334   -3.4858   3.1496  0.00    0.0
2026/01/01 06:02:44.000   28.590508443    77.101308457    167.9938   5   9   4.5505   4.5279  12.4924   0.8268   -3.4534   3.1701  0.00    0.0
2026/01/01 06:02:45.000   28.590554230    77.101360179    168.0968   5   7   4.6922   4.5662  12.5181   0.8169   -3.5058   3.1604  0.00    0.0
2026/01/01 06:02:46.000   28.590599820    77.101411643    167.4850   5  10   4.6827   4.5525  12.3000   0.8578   -3.4585   3.1333  0.00    0.0
2026/01/01 06:02:47.000   28.590645218    77.101462903    167.8536   5  10   4.7136   4.5799  12.5031   0.8524   -3.4564   3.1217  0.00    0.0
2026/01/01 06:02:48.000   28.590690272    77.101513882    168.1958   5  10   4.6760   4.6633  12.5036   0.8173   -3.4680   3.1139  0.00    0.0
2026/01/01 06:02:49.000   28.590735175    77.101564645    167.8205   5  10   4.6718   4.5880  12.2995   0.8051   -3.5033   3.1321  0.00    0.0
2026/01/01 06:02:50.000   28.590779718    77.101615095    167.7836   5   9   4.6098   4.4553  12.2948   0.8334   -3.4701   3.1708  0.00    0.0
2026/01/01 06:02:51.000   28.590824086    77.101665369    167.4643   5   7   4.6363   4.5710  12.0829   0.8322   -3.5063   3.1397  0.00    0.0
2026/01/01 06:02:52.000   28.590868157    77.101715329    168.0003   5   9   4.7339   4.5895  12.4099   0.8033   -3.4592   3.1593  0.00    0.0
2026/01/01 06:02:53.000   28.590911989    77.101765046    167.9071   5  10   4.6449   4.5229  12.1931   0.8140   -3.4633   3.1419  0.00    0.0
2026/01/01 06:02:54.000   28.590955547    77.101814537    167.8464   5   7   4.6483   4.4836  12.4193   0.8296   -3.4776   3.1577  0.00    0.0
2026/01/01 06:02:55.000   28.590998894    77.101863836    167.9107   5   9   4.6921   4.5834  12.1914   0.8250   -3.4430   3.1327  0.00    0.0
2026/01/01 06:02:56.000   28.591041915    77.101912842    167.9571   5   7   4.7217   4.5915  11.8815   0.8478   -3.4555   3.1610  0.00    0.0
2026/01/01 06:02:57.000   28.591084734    77.101961548    168.0220   5   8   4.6672   4.5635  12.5495   0.8411   -3.4843   3.1552  0.00    0.0
2026/01/01 06:02:58.000   28.591127228    77.102010028    167.7955   5   9   4.6451   4.5647  12.5372   0.8294   -3.4941   3.1562  0.00    0.0
2026/01/01 06:02:59.000   28.591169568    77.102058252    168.4059   5  10   4.7233   4.4676  12.4001   0.8165   -3.4841   3.1680  0.00    0.0
2026/01/01 06:03:00.000   28.591211560    77.102106161    167.9318   5   9   4.7147   4.5933  12.6222   0.8370   -3.5052   3.1413  0.00    0.0
2026/01/01 06:03:01.000   28.591253266    77.102153874    167.3230   5   9   4.6789   4.5986  12.4157   0.8093   -3.4610   3.1449  0.00    0.0
2026/01/01 06:03:02.000   28.591294809    77.102201308    167.6554   5   9   4.6933   4.5482  12.4616   0.8281   -3.4671   3.1751  0.00    0.0
2026/01/01 06:03:03.000   28.591335980    77.102248485    167.7498   5   7   4.6192   4.6260  12.2402   0.8347   -3.5011   3.1481  0.00    0.0
2026/01/01 06:03:04.000   28.591376919    77.102295430    167.4443   5   9   4.6776   4.6141  12.3617   0.8083   -3.4683   3.1589  0.00    0.0
2026/01/01 06:03:05.000   28.591417634    77.102342065    168.1606   5   9   4.5525   4.5178  12.2102   0.8050   -3.4505   3.1567  0.00    0.0
2026/01/01 06:03:06.000   28.591458033    77.102388450    167.6102   5   7   4.6672   4.5360  12.2694   0.8203   -3.5316   3.1495  0.00    0.0
2026/01/01 06:03:07.000   28.591498109    77.102434542    167.6738   5   9   4.7396   4.5836  12.1596   0.8245   -3.4869   3.1486  0.00    0.0
2026/01/01 06:03:08.000   28.591538078    77.102480401    167.6941   5   8   4.7135   4.4875  12.5587   0.8269   -3.5028   3.1751  0.00    0.0
2026/01/01 06:03:09.000   28.591577683    77.102525982    167.5755   5   9   4.6323   4.6687  12.5767   0.8480   -3.5125   3.1566  0.00    0.0
2026/01/01 06:03:10.000   28.591617021    77.102571298    168.0046   5  10   4.6884   4.4831  12.4939   0.8325   -3.4638   3.1406  0.00    0.0
2026/01/01 06:03:11.000   28.591656074    77.102616343    168.1661   5  10   4.6935   4.6224  12.2624   0.8504   -3.4978   3.1887  0.00    0.0
2026/01/01 06:03:12.000   28.591694826    77.102661119    167.5021   5   7   4.7090   4.5571  12.2938   0.8175   -3.4981   3.1459  0.00    0.0
2026/01/01 06:03:13.000   28.591733314    77.102705612    167.9349   5   9   4.6400   4.5816  12.2973   0.8646   -3.4658   3.1661  0.00    0.0
2026/01/01 06:03:14.000   28.591771574    77.102749841    167.6815   5   7   4.6237   4.5058  12.3682   0.8073   -3.5167   3.1774  0.00    0.0
2026/01/01 06:03:15.000   28.591809466    77.102793777    168.0014   5  10   4.6687   4.5540  12.2002   0.8039   -3.4466   3.1796  0.00    0.0
2026/01/01 06:03:16.000   28.591847182    77.102837502    167.5265   5  10   4.7307   4.6559  12.4586   0.8273   -3.4622   3.1617  0.00    0.0
2026/01/01 06:03:17.000   28.591884553    77.102880885    167.8240   5  10   4.6577   4.5149  12.1534   0.8280   -3.4546   3.1580  0.00    0.0
2026/01/01 06:03:18.000   28.591921645    77.102923991    167.5594   5   7   4.6678   4.6449  12.2600   0.8312   -3.4707   3.1310  0.00    0.0
2026/01/01 06:03:19.000   28.591958496    77.102966820    167.9984   5   7   4.7192   4.4917  12.3089   0.8129   -3.5138   3.1307  0.00    0.0
2026/01/01 06:03:20.000   28.591995026    77.103009410    167.8612   5  10   4.8135   4.5460  12.0417   0.8580   -3.4803   3.1682  0.00    0.0
2026/01/01 06:03:21.000   28.592031289    77.103051699    167.8410   5  10   4.6660   4.5590  12.2930   0.8709   -3.4773   3.1569  0.00    0.0
2026/01/01 06:03:22.000   28.592067285    77.103093702    167.4885   5   9   4.6399   4.5940  12.2939   0.8460   -3.4823   3.1588  0.00    0.0
2026/01/01 06:03:23.000   28.592102975    77.103135458    167.5653   5   8   4.6484   4.6002  12.0822   0.8074   -3.4513   3.1712  0.00    0.0
2026/01/01 06:03:24.000   28.592138380    77.103176830    167.6659   5   9   4.6378   4.6902  12.3300   0.8289   -3.4726   3.1727  0.00    0.0
2026/01/01 06:03:25.000   28.592173467    77.103218015    167.9106   5   7   4.7126   4.5368  12.2940   0.8001   -3.5147   3.1384  0.00    0.0
2026/01/01 06:03:26.000   28.592208314    77.103258905    167.5695   5   7   4.7284   4.5038  11.9516   0.8229   -3.4544   3.1524  0.00    0.0
2026/01/01 06:03:27.000   28.592242841    77.103299451    167.8901   5   7   4.5772   4.5849  12.4579   0.8317   -3.4594   3.1448  0.00    0.0
2026/01/01 06:03:28.000   28.592277074    77.103339774    167.9881   5   9   4.7724   4.5427  11.9418   0.8443   -3.4670   3.1880  0.00    0.0
2026/01/01 06:03:29.000   28.592311081    77.103379816    168.1449   5  10   4.6210   4.5409  12.2301   0.8246   -3.5059   3.1628  0.00    0.0
2026/01/01 06:03:30.000   28.592344698    77.103419511    168.0169   5   9   4.7018   4.5761  12.2643   0.8374   -3.4643   3.1483  0.00    0.0
2026/01/01 06:03:31.000   28.592378126    77.103458963    167.7625   5   9   4.6637   4.5178  12.3305   0.8333   -3.4773   3.1544  0.00    0.0
2026/01/01 06:03:32.000   28.592411189    77.103498092    167.9521   5  10   4.7240   4.4783  12.4293   0.8365   -3.5093   3.1316  0.00    0.0
2026/01/01 06:03:33.000   28.592444005    77.103536962    167.4091   5   9   4.6803   4.5640  12.3646   0.8657   -3.4725   3.1379  0.00    0.0
2026/01/01 06:03:34.000   28.592476452    77.103575519    167.6929   5   9   4.6218   4.5438  11.9802   0.8339   -3.4829   3.1435  0.00    0.0
2026/01/01 06:03:35.000   28.592508660    77.103613797    167.5487   5   8   4.7370   4.6059  12.3412   0.8419   -3.4738   3.1444  0.00    0.0
2026/01/01 06:03:36.000   28.592540566    77.103651777    168.1801   5   7   4.7366   4.5824  12.1725   0.8058   -3.4717   3.1638  0.00    0.0
2026/01/01 06:03:37.000   28.592572157    77.103689476    167.6965   5   9   4.6826   4.5112  12.3149   0.8160   -3.5055   3.1670  0.00    0.0
2026/01/01 06:03:38.000   28.592603500    77.103726840    167.9388   5   7   4.6620   4.5250  12.1798   0.8698   -3.4806   3.1840  0.00    0.0
2026/01/01 06:03:39.000   28.592634474    77.103763984    168.1929   5   9   4.6241   4.4569  12.4884   0.8526   -3.5018   3.1212  0.00    0.0
2026/01/01 06:03:40.000   28.592665180    77.103800756    167.5730   5  10   4.7369   4.5450  12.5608   0.8069   -3.4753   3.1378  0.00    0.0
2026/01/01 06:03:41.000   28.592695587    77.103837242    167.7645   5  10   4.6723   4.5996  12.1846   0.8484   -3.4741   3.1772  0.00    0.0
2026/01/01 06:03:42.000   28.592725751    77.103873471    167.6680   5   8   4.6134   4.5458  12.4820   0.8037   -3.4630   3.1475  0.00    0.0
2026/01/01 06:03:43.000   28.592755542    77.103909339    167.6390   5   9   4.6645   4.5892  12.3475   0.8300   -3.4994   3.1438  0.00    0.0
2026/01/01 06:03:44.000   28.592785058    77.103944937    167.7037   5   7   4.6258   4.5694  12.6530   0.8201   -3.4321   3.1697  0.00    0.0
2026/01/01 06:03:45.000   28.592814242    77.103980220    167.8912   5   7   4.6963   4.4872  12.0982   0.8226   -3.4725   3.1442  0.00    0.0
2026/01/01 06:03:46.000   28.592843126    77.104015249    167.9784   5  10   4.6972   4.5303  12.2359   0.8299   -3.4767   3.1310  0.00    0.0
2026/01/01 06:03:47.000   28.592871716    77.104049952    168.0141   5   9   4.7848   4.5808  11.9077   0.8371   -3.4984   3.1628  0.00    0.0
2026/01/01 06:03:48.000   28.592900019    77.104084358    167.8486   5  10   4.6849   4.5827  12.3097   0.8295   -3.4895   3.1331  0.00    0.0
2026/01/01 06:03:49.000   28.592927994    77.104118359    167.9121   5   8   4.6425   4.5907  11.8277   0.8296   -3.4783   3.1508  0.00    0.0
2026/01/01 06:03:50.000   28.592955679    77.104152195    167.6596   5  10   4.7043   4.5238  12.1487   0.8077   -3.5245   3.1351  0.00    0.0
2026/01/01 06:03:51.000   28.592983048    77.104185680    167.4067   5  10   4.5678   4.5443  11.8672   0.8317   -3.5043   3.1338  0.00    0.0
2026/01/01 06:03:52.000   28.593010087    77.104218861    167.8788   5   8   4.6982   4.5143  12.3484   0.8163   -3.4639   3.1118  0.00    0.0
2026/01/01 06:03:53.000   28.593036881    77.104251678    168.1098   5   7   4.6403   4.5531  12.2850   0.8787   -3.4665   3.1516  0.00    0.0
2026/01/01 06:03:54.000   28.593063281    77.104284262    167.8052   5  10   4.6818   4.6114  12.3659   0.8446   -3.4464   3.1653  0.00    0.0
2026/01/01 06:03:55.000   28.593089430    77.104316518    167.8963   5   7   4.6253   4.5516  12.0651   0.8328   -3.4848   3.1821  0.00    0.0
2026/01/01 06:03:56.000   28.593115235    77.104348449    167.6930   5   7   4.5907   4.5264  12.1872   0.8629   -3.5001   3.1506  0.00    0.0
2026/01/01 06:03:57.000   28.593140759    77.104380050    167.8576   5   7   4.5612   4.5373  12.1853   0.8483   -3.4596   3.1653  0.00    0.0
2026/01/01 06:03:58.000   28.593165933    77.104411355    168.1910   5   9   4.6360   4.5560  12.3398   0.8176   -3.4905   3.1494  0.00    0.0
2026/01/01 06:03:59.000   28.593190810    77.104442397    167.7766   5   7   4.6309   4.5407  12.3996   0.8405   -3.4958   3.1741  0.00    0.0
2026/01/01 06:04:00.000   28.593215395    77.104473088    167.5844   5   7   4.7007   4.5593  12.0364   0.8398   -3.4804   3.1288  0.00    0.0
2026/01/01 06:04:01.000   28.593239654    77.104503483    167.7658   5   8   4.7288   4.4561  12.5229   0.8511   -3.4427   3.1387  0.00    0.0
2026/01/01 06:04:02.000   28.593263579    77.104533544    167.7341   5   9   4.5615   4.6090  12.3499   0.8098   -3.4978   3.1413  0.00    0.0
2026/01/01 06:04:03.000   28.593287238    77.104563273    167.8878   5  10   4.6575   4.4509  12.2767   0.8696   -3.4838   3.1655  0.00    0.0
2026/01/01 06:04:04.000   28.593310506    77.104592737    167.8757   5   7   4.7305   4.5282  12.0555   0.8266   -3.4933   3.1662  0.00    0.0
2026/01/01 06:04:05.000   28.593333517    77.104621861    167.7259   5  10   4.5905   4.5699  12.0457   0.8424   -3.4674   3.1647  0.00    0.0
2026/01/01 06:04:06.000   28.593356222    77.104650649    167.7961   5   9   4.6991   4.4990  12.1527   0.8457   -3.4815   3.1517  0.00    0.0
2026/01/01 06:04:07.000   28.593378556    77.104679158    167.8169   5   9   4.6778   4.5173  12.5421   0.7765   -3.5057   3.1471  0.00    0.0
2026/01/01 06:04:08.000   28.593400582    77.104707351    167.8282   5   8   4.6980   4.5708  12.1812   0.8232   -3.4182   3.1477  0.00    0.0
2026/01/01 06:04:09.000   28.593422339    77.104735202    167.7097   5   8   4.7209   4.5393  12.1553   0.8450   -3.4609   3.1677  0.00    0.0
2026/01/01 06:04:10.000   28.593443737    77.104762671    167.9044   5   7   4.6491   4.5332  12.7264   0.8371   -3.4902   3.1469  0.00    0.0
2026/01/01 06:04:11.000   28.593464832    77.104789941    167.7485   5  10   4.6881   4.6198  12.8123   0.8008   -3.4768   3.1551  0.00    0.0
2026/01/01 06:04:12.000   28.593485606    77.104816868    167.4924   5   8   4.6832   4.5890  12.4076   0.8286   -3.4615   3.1556  0.00    0.0
2026/01/01 06:04:13.000   28.593505975    77.104843374    167.4944   5   9   4.6757   4.5117  12.1652   0.8246   -3.4944   3.1581  0.00    0.0
2026/01/01 06:04:14.000   28.593526184    77.104869708    167.8640   5  10   4.6997   4.4746  12.5220   0.8310   -3.4926   3.1580  0.00    0.0
2026/01/01 06:04:15.000   28.593545928    77.104895572    167.6124   5   9   4.6383   4.5510  12.1561   0.8521   -3.4752   3.1605  0.00    0.0
2026/01/01 06:04:16.000   28.593565401    77.104921169    167.8418   5   9   4.6825   4.4595  12.3780   0.8319   -3.4817   3.1610  0.00    0.0
2026/01/01 06:04:17.000   28.593584562    77.104946492    167.9517   5   8   4.6689   4.6161  12.1776   0.8386   -3.4580   3.1381  0.00    0.0
2026/01/01 06:04:18.000   28.593603389    77.104971438    167.5742   5   9   4.5828   4.5825  12.3371   0.8537   -3.4787   3.1373  0.00    0.0
2026/01/01 06:04:19.000   28.593621937    77.104996101    168.0198   5   9   4.6547   4.5575  12.1652   0.8203   -3.4643   3.1472  0.00    0.0
2026/01/01 06:04:20.000   28.593640114    77.105020469    167.5215   5   7   4.6688   4.4955  12.4115   0.8051   -3.4563   3.1472  0.00    0.0
2026/01/01 06:04:21.000   28.593657951    77.105044434    167.6634   5   7   4.6752   4.6803  12.2720   0.8154   -3.4902   3.1527  0.00    0.0
2026/01/01 06:04:22.000   28.593675472    77.105068102    167.6283   5   9   4.6544   4.5282  12.6666   0.8232   -3.4591   3.1486  0.00    0.0
2026/01/01 06:04:23.000   28.593692699    77.105091384    167.8057   5   8   4.6494   4.5155  12.3589   0.8236   -3.4545   3.1513  0.00    0.0
2026/01/01 06:04:24.000   28.593709565    77.105114410    167.7808   5  10   4.6828   4.5800  12.0878   0.8223   -3.5381   3.1859  0.00    0.0
2026/01/01 06:04:25.000   28.593726181    77.105137087    167.5630   5   9   4.7471   4.6174  12.3148   0.8271   -3.4708   3.1792  0.00    0.0
2026/01/01 06:04:26.000   28.593742379    77.105159470    167.8143   5   9   4.6596   4.6404  12.0589   0.8301   -3.4938   3.1396  0.00    0.0
2026/01/01 06:04:27.000   28.593758296    77.105181486    167.9576   5   9   4.6378   4.5135  12.2338   0.8183   -3.5068   3.1034  0.00    0.0
2026/01/01 06:04:28.000   28.593773829    77.105203186    167.6711   5   9   4.7043   4.5143  12.0983   0.8242   -3.4959   3.1380  0.00    0.0
2026/01/01 06:04:29.000   28.593789095    77.105224543    167.7361   5   7   4.7035   4.5732  12.1579   0.8259   -3.4489   3.1343  0.00    0.0
2026/01/01 06:04:30.000   28.593804002    77.105245642    167.4922   5   7   4.6120   4.5395  12.0819   0.8230   -3.4801   3.1442  0.00    0.0
2026/01/01 06:04:31.000   28.593818634    77.105266325    167.8743   5   9   4.6717   4.5379  12.0781   0.8350   -3.4635   3.1792  0.00    0.0
2026/01/01 06:04:32.000   28.593832872    77.105286733    167.4451   5   7   4.5932   4.6568  12.3348   0.8417   -3.4877   3.1422  0.00    0.0
2026/01/01 06:04:33.000   28.593846820    77.105306770    167.5338   5   7   4.5818   4.5824  12.0751   0.8139   -3.5059   3.1517  0.00    0.0
2026/01/01 06:04:34.000   28.593860418    77.105326466    167.6481   5   7   4.6530   4.5264  12.2648   0.8439   -3.4550   3.1711  0.00    0.0
2026/01/01 06:04:35.000   28.593873689    77.105345846    167.6765   5   9   4.6189   4.5137  12.1535   0.8148   -3.4609   3.1673  0.00    0.0
2026/01/01 06:04:36.000   28.593886653    77.105364943    167.6847   5   8   4.6567   4.5680  12.5777   0.8422   -3.5018   3.1477  0.00    0.0
2026/01/01 06:04:37.000   28.593899220    77.105383620    167.6390   5   8   4.7172   4.6153  12.1230   0.8185   -3.4532   3.1248  0.00    0.0
2026/01/01 06:04:38.000   28.593911512    77.105402090    167.5876   5   9   4.6370   4.6184  12.0042   0.7969   -3.4927   3.1612  0.00    0.0
2026/01/01 06:04:39.000   28.593923466    77.105420087    167.2989   5   9   4.7622   4.5449  12.2132   0.8060   -3.4881   3.1411  0.00    0.0
2026/01/01 06:04:40.000   28.593935093    77.105437799    167.8842   5   9   4.6643   4.6121  12.2248   0.8218   -3.4918   3.1281  0.00    0.0
2026/01/01 06:04:41.000   28.593946381    77.105455192    167.6125   5   8   4.6837   4.5778  12.4584   0.8240   -3.4387   3.1472  0.00    0.0
2026/01/01 06:04:42.000   28.593957338    77.105472242    167.5964   5   7   4.7119   4.5681  11.8086   0.8127   -3.4660   3.1504  0.00    0.0
2026/01/01 06:04:43.000   28.593967946    77.105488950    167.9368   5   8   4.4974   4.5874  12.2861   0.8319   -3.4852   3.1653  0.00    0.0
2026/01/01 06:04:44.000   28.593978214    77.105505347    167.5745   5   8   4.6750   4.5496  12.2188   0.8310   -3.4801   3.1018  0.00    0.0
2026/01/01 06:04:45.000   28.593988166    77.105521350    167.6597   5   9   4.7031   4.5206  12.3813   0.8238   -3.4482   3.1690  0.00    0.0
2026/01/01 06:04:46.000   28.593997792    77.105537089    167.4783   5   7   4.6640   4.7018  12.1739   0.8179   -3.4835   3.1488  0.00    0.0
2026/01/01 06:04:47.000   28.594007110    77.105552461    167.6336   5   8   4.7230   4.5888  12.1093   0.8267   -3.5123   3.1592  0.00    0.0
2026/01/01 06:04:48.000   28.594016043    77.105567486    167.6246   5   7   4.6655   4.6255  12.2433   0.8643   -3.5118   3.1427  0.00    0.0
2026/01/01 06:04:49.000   28.594024683    77.105582202    167.6951   5   7   4.7359   4.5074  12.2510   0.8046   -3.4749   3.1472  0.00    0.0
2026/01/01 06:04:50.000   28.594032969    77.105596563    167.5682   5   8   4.6482   4.5694  12.5779   0.8525   -3.4659   3.1700  0.00    0.0
2026/01/01 06:04:51.000   28.594040904    77.105610561    167.5556   5   9   4.6981   4.5164  12.2706   0.8269   -3.5072   3.1212  0.00    0.0
2026/01/01 06:04:52.000   28.594048522    77.105624251    168.0900   5   7   4.7212   4.5908  12.7779   0.8323   -3.4696   3.1537  0.00    0.0
2026/01/01 06:04:53.000   28.594055825    77.105637596    167.6864   5   8   4.5971   4.6856  12.1273   0.8473   -3.4717   3.1566  0.00    0.0
2026/01/01 06:04:54.000   28.594062758    77.105650621    168.2100   5   9   4.6754   4.5143  12.2306   0.8216   -3.5017   3.1960  0.00    0.0
2026/01/01 06:04:55.000   28.594069390    77.105663268    167.7038   5   7   4.7954   4.6646  12.0399   0.8175   -3.4761   3.1731  0.00    0.0
2026/01/01 06:04:56.000   28.594075659    77.105675600    167.7670   5   9   4.6879   4.5702  12.2991   0.8046   -3.4644   3.1628  0.00    0.0
2026/01/01 06:04:57.000   28.594081589    77.105687611    167.6317   5   7   4.6713   4.5912  11.9682   0.8364   -3.4904   3.1618  0.00    0.0
2026/01/01 06:04:58.000   28.594087155    77.105699218    167.4546   5   7   4.5053   4.5995  12.3707   0.8436   -3.4563   3.1612  0.00    0.0
2026/01/01 06:04:59.000   28.594092431    77.105710578    167.8203   5   8   4.6872   4.4712  12.1187   0.8595   -3.4812   3.1463  0.00    0.0
2026/01/01 06:05:00.000   28.594097429    77.105721495    167.8260   5   7   4.7228   4.4930  12.2951   0.8237   -3.4441   3.1274  0.00    0.0
2026/01/01 06:05:01.000   28.594102005    77.105732116    167.8503   5   8   4.6441   4.5684  12.1574   0.8181   -3.4809   3.1779  0.00    0.0
2026/01/01 06:05:02.000   28.594106250    77.105742425    167.9788   5   7   4.6954   4.6020  12.2002   0.8188   -3.4970   3.1369  0.00    0.0
2026/01/01 06:05:03.000   28.594110177    77.105752334    167.8869   5   8   4.6500   4.5305  12.3103   0.8280   -3.5199   3.1721  0.00    0.0
2026/01/01 06:05:04.000   28.594113778    77.105761962    167.8760   5   9   4.5938   4.5959  12.5676   0.8560   -3.5101   3.1658  0.00    0.0
2026/01/01 06:05:05.000   28.594116991    77.105771211    167.6331   5   7   4.6782   4.5008  12.2371   0.8411   -3.5042   3.1120  0.00    0.0
2026/01/01 06:05:06.000   28.594119925    77.105780119    167.6642   5   9   4.6532   4.5510  11.9339   0.8579   -3.4733   3.1512  0.00    0.0
2026/01/01 06:05:07.000   28.594122491    77.105788681    168.1063   5   8   4.7353   4.5233  12.2248   0.8256   -3.4708   3.1459  0.00    0.0
2026/01/01 06:05:08.000   28.594124764    77.105796961    167.7028   5   9   4.6782   4.6138  12.0516   0.8245   -3.4779   3.1703  0.00    0.0
2026/01/01 06:05:09.000   28.594126669    77.105804851    167.4654   5   7   4.6078   4.5837  12.2278   0.8676   -3.4980   3.1435  0.00    0.0
2026/01/01 06:05:10.000   28.594128230    77.105812378    167.5212   5   8   4.5770   4.5775  12.4578   0.8411   -3.4931   3.1983  0.00    0.0
2026/01/01 06:05:11.000   28.594129487    77.105819593    167.9220   5   8   4.6777   4.5886  12.3538   0.8628   -3.4483   3.1591  0.00    0.0
2026/01/01 06:05:12.000   28.594130405    77.105826434    167.5909   5   7   4.6098   4.4938  12.3274   0.8120   -3.4964   3.2004  0.00    0.0
2026/01/01 06:05:13.000   28.594130939    77.105832955    168.1905   5   7   4.6906   4.4998  12.4779   0.8410   -3.4928   3.1320  0.00    0.0
2026/01/01 06:05:14.000   28.594131191    77.105839152    167.7851   5  10   4.6533   4.5194  12.4983   0.8413   -3.5007   3.1486  0.00    0.0
2026/01/01 06:05:15.000   28.594131006    77.105845005    167.6149   5   7   4.7527   4.5858  12.5537   0.8398   -3.4643   3.1664  0.00    0.0
2026/01/01 06:05:16.000   28.594130551    77.105850414    167.9343   5   9   4.6567   4.5247  12.2376   0.8441   -3.5287   3.1319  0.00    0.0
2026/01/01 06:05:17.000   28.594129741    77.105855604    167.4496   5   9   4.6712   4.4960  12.5383   0.8576   -3.4828   3.1623  0.00    0.0
2026/01/01 06:05:18.000   28.594128663    77.105860364    167.6579   5   9   4.5433   4.6222  12.5578   0.8216   -3.4838   3.1399  0.00    0.0
2026/01/01 06:05:19.000   28.594127228    77.105864847    167.5918   5  10   4.6102   4.6168  12.4610   0.8420   -3.4494   3.1168  0.00    0.0
2026/01/01 06:05:20.000   28.594125390    77.105868975    167.7838   5   7   4.6940   4.5374  12.0683   0.8339   -3.4873   3.1472  0.00    0.0
2026/01/01 06:05:21.000   28.594123305    77.105872728    167.8832   5  10   4.7038   4.4815  12.2100   0.8380   -3.4661   3.1713  0.00    0.0
2026/01/01 06:05:22.000   28.594120795    77.105876153    167.9168   5   7   4.6351   4.5928  12.2455   0.8183   -3.4867   3.1812  0.00    0.0
2026/01/01 06:05:23.000   28.594118000    77.105879243    167.5339   5  10   4.6392   4.5324  12.3590   0.8054   -3.4558   3.1381  0.00    0.0
2026/01/01 06:05:24.000   28.594114851    77.105881959    167.5514   5  10   4.6540   4.5231  12.3301   0.8417   -3.4683   3.1696  0.00    0.0
2026/01/01 06:05:25.000   28.594111341    77.105884343    167.7282   5   7   4.6702   4.5967  11.9990   0.8092   -3.4731   3.1769  0.00    0.0
2026/01/01 06:05:26.000   28.594107591    77.105886391    167.7560   5   7   4.6060   4.5624  12.0302   0.8286   -3.4555   3.1330  0.00    0.0
2026/01/01 06:05:27.000   28.594103379    77.105888126    167.5928   5  10   4.6915   4.6213  12.5901   0.8346   -3.4427   3.1389  0.00    0.0
2026/01/01 06:05:28.000   28.594098904    77.105889455    167.7936   5  10   4.6910   4.4876  12.3881   0.8140   -3.4474   3.1660  0.00    0.0
2026/01/01 06:05:29.000   28.594094053    77.105890470    168.1330   5   7   4.5554   4.6654  12.2814   0.8482   -3.4631   3.1219  0.00    0.0
2026/01/01 06:05:30.000   28.594088878    77.105891143    167.6999   5   7   4.6294   4.5047  12.2439   0.8227   -3.4743   3.1092  0.00    0.0
2026/01/01 06:05:31.000   28.594083414    77.105891500    167.7057   5  10   4.8005   4.6334  12.5170   0.8096   -3.4546   3.1579  0.00    0.0
2026/01/01 06:05:32.000   28.594077586    77.105891459    167.7761   5   7   4.6613   4.5616  12.2752   0.8491   -3.4784   3.2052  0.00    0.0
2026/01/01 06:05:33.000   28.594071405    77.105891057    167.7603   5  10   4.6407   4.5550  12.3567   0.8391   -3.4914   3.1641  0.00    0.0
2026/01/01 06:05:34.000   28.594064897    77.105890376    167.7199   5   8   4.6922   4.5560  12.4777   0.8224   -3.4771   3.1495  0.00    0.0
2026/01/01 06:05:35.000   28.594058053    77.105889319    168.2384   5   9   4.6199   4.5946  12.5286   0.8163   -3.4803   3.1834  0.00    0.0
2026/01/01 06:05:36.000   28.594050888    77.105887948    167.6729   5   8   4.6140   4.5531  12.1124   0.8073   -3.4826   3.1343  0.00    0.0
2026/01/01 06:05:37.000   28.594043411    77.105886196    167.6219   5   7   4.5946   4.5806  11.9368   0.8406   -3.4815   3.1628  0.00    0.0
2026/01/01 06:05:38.000   28.594035532    77.105884096    167.6180   5  10   4.7202   4.5449  12.4935   0.8185   -3.4779   3.1341  0.00    0.0
2026/01/01 06:05:39.000   28.594027331    77.105881629    167.5889   5   9   4.6893   4.5633  12.3813   0.8435   -3.4868   3.1547  0.00    0.0
2026/01/01 06:05:40.000   28.594018820    77.105878880    168.0944   5   8   4.6659   4.5164  12.3611   0.8320   -3.4909   3.1935  0.00    0.0
2026/01/01 06:05:41.000   28.594009998    77.105875761    168.0436   5  10   4.7260   4.5807  12.1504   0.7936   -3.5204   3.1390  0.00    0.0
2026/01/01 06:05:42.000   28.594000803    77.105872282    167.9381   5   9   4.6279   4.5566  12.0138   0.8227   -3.5035   3.1763  0.00    0.0
2026/01/01 06:05:43.000   28.593991297    77.105868475    167.7067   5   7   4.5723   4.5739  12.2311   0.8593   -3.4751   3.1640  0.00    0.0
2026/01/01 06:05:44.000   28.593981452    77.105864304    167.6866   5  10   4.6658   4.5527  12.0824   0.8521   -3.4856   3.1799  0.00    0.0
2026/01/01 06:05:45.000   28.593971276    77.105859844    167.6891   5   7   4.6533   4.5825  12.2009   0.8581   -3.4902   3.1598  0.00    0.0
2026/01/01 06:05:46.000   28.593960727    77.105854989    167.8701   5   8   4.7166   4.5707  11.8029   0.8372   -3.5028   3.1381  0.00    0.0
2026/01/01 06:05:47.000   28.593949887    77.105849799    167.8475   5   9   4.7232   4.6134  12.2876   0.8114   -3.4710   3.1608  0.00    0.0
2026/01/01 06:05:48.000   28.593938728    77.105844284    167.7833   5   7   4.6960   4.5607  12.3392   0.8755   -3.4628   3.1476  0.00    0.0
2026/01/01 06:05:49.000   28.593927193    77.105838399    167.8488   5   7   4.6947   4.5732  11.9567   0.8280   -3.5178   3.1502  0.00    0.0
2026/01/01 06:05:50.000   28.593915383    77.105832186    168.2113   5   7   4.7357   4.5359  12.0666   0.8040   -3.4859   3.1608  0.00    0.0
2026/01/01 06:05:51.000   28.593903168    77.105825590    167.5551   5  10   4.5958   4.6423  12.3372   0.8531   -3.4718   3.1769  0.00    0.0
2026/01/01 06:05:52.000   28.593890696    77.105818704    167.6511   5  10   4.6780   4.5606  12.4818   0.8294   -3.4951   3.1600  0.00    0.0
2026/01/01 06:05:53.000   28.593877837    77.105811480    167.8715   5   9   4.6667   4.5804  12.2166   0.7988   -3.4864   3.1616  0.00    0.0
2026/01/01 06:05:54.000   28.593864710    77.105803850    167.8830   5   9   4.6307   4.5070  12.5987   0.8191   -3.4854   3.1252  0.00    0.0
2026/01/01 06:05:55.000   28.593851200    77.105795952    167.7930   5  10   4.7220   4.5906  12.0517   0.8066   -3.4598   3.0997  0.00    0.0
2026/01/01 06:05:56.000   28.593837367    77.105787680    167.7316   5   7   4.6965   4.5553  12.0646   0.8329   -3.4577   3.1323  0.00    0.0
2026/01/01 06:05:57.000   28.593823246    77.105779028    167.8999   5   7   4.6635   4.5865  11.9020   0.8003   -3.4945   3.1778  0.00    0.0
2026/01/01 06:05:58.000   28.593808721    77.105770064    168.0534   5   7   4.6615   4.5420  12.0924   0.8414   -3.4940   3.1971  0.00    0.0
2026/01/01 06:05:59.000   28.593793878    77.105760784    167.7924   5  10   4.6765   4.5674  12.3605   0.8659   -3.4520   3.1543  0.00    0.0
2026/01/01 06:06:00.000   28.593778723    77.105751125    168.1830   5   7   4.6329   4.5437  12.2443   0.8263   -3.4577   3.1480  0.00    0.0
2026/01/01 06:06:01.000   28.593763283    77.105741133    167.6285   5   7   4.6481   4.6006  12.5688   0.8035   -3.5225   3.1452  0.00    0.0
2026/01/01 06:06:02.000   28.593747483    77.105730784    168.0313   5   9   4.7745   4.5196  12.3409   0.8183   -3.5084   3.1250  0.00    0.0
2026/01/01 06:06:03.000   28.593731372    77.105720146    167.7953   5   7   4.6298   4.5763  12.3963   0.8471   -3.5107   3.1542  0.00    0.0
2026/01/01 06:06:04.000   28.593714914    77.105709194    167.8669   5  10   4.7594   4.5751  12.3111   0.8408   -3.4713   3.1540  0.00    0.0
2026/01/01 06:06:05.000   28.593698108    77.105697812    168.1235   5   7   4.6477   4.6310  12.2891   0.7990   -3.4543   3.1332  0.00    0.0
2026/01/01 06:06:06.000   28.593681024    77.105686134    167.9491   5  10   4.6675   4.6279  12.2509   0.8169   -3.4448   3.1396  0.00    0.0
2026/01/01 06:06:07.000   28.593663545    77.105674115    167.7160   5   7   4.6665   4.5501  12.2067   0.8029   -3.4847   3.1591  0.00    0.0
2026/01/01 06:06:08.000   28.593645854    77.105661692    167.9083   5  10   4.6387   4.5168  12.2452   0.8189   -3.4627   3.1170  0.00    0.0
2026/01/01 06:06:09.000   28.593627773    77.105649023    167.8826   5   7   4.7010   4.5716  12.0221   0.8458   -3.4543   3.1852  0.00    0.0
2026/01/01 06:06:10.000   28.593609388    77.105635985    167.6017   5  10   4.7113   4.5154  12.7135   0.7919   -3.4597   3.1538  0.00    0.0
2026/01/01 06:06:11.000   28.593590603    77.105622575    167.7681   5   9   4.7337   4.6005  12.3395   0.8109   -3.4659   3.1567  0.00    0.0
2026/01/01 06:06:12.000   28.593571550    77.105608835    167.7028   5   9   4.6588   4.6001  12.1164   0.8058   -3.4805   3.1486  0.00    0.0
2026/01/01 06:06:13.000   28.593552180    77.105594767    168.1320   5   7   4.6706   4.5587  12.4310   0.8195   -3.4552   3.1520  0.00    0.0
2026/01/01 06:06:14.000   28.593532489    77.105580384    167.7679   5   9   4.7720   4.5631  11.9835   0.8325   -3.4559   3.1522  0.00    0.0
2026/01/01 06:06:15.000   28.593512451    77.105565632    167.4674   5   9   4.6791   4.5601  12.3189   0.8037   -3.5028   3.1622  0.00    0.0
2026/01/01 06:06:16.000   28.593492149    77.105550597    167.9089   5   8   4.6585   4.6616  12.3784   0.8254   -3.4561   3.1519  0.00    0.0
2026/01/01 06:06:17.000   28.593471450    77.105535137    167.7011   5   7   4.7396   4.5099  12.4279   0.8356   -3.4653   3.1653  0.00    0.0
2026/01/01 06:06:18.000   28.593450510    77.105519392    167.5889   5   9   4.6440   4.5826  12.0552   0.8382   -3.4795   3.1822  0.00    0.0
2026/01/01 06:06:19.000   28.593429183    77.105503325    167.7075   5   7   4.6699   4.4522  12.2920   0.8317   -3.4759   3.1387  0.00    0.0
2026/01/01 06:06:20.000   28.593407572    77.105486873    168.2202   5   7   4.6646   4.5879  12.5514   0.8344   -3.4640   3.1707  0.00    0.0
2026/01/01 06:06:21.000   28.593385614    77.105470150    167.9709   5  10   4.7026   4.6096  12.4847   0.7778   -3.4908   3.1128  0.00    0.0
2026/01/01 06:06:22.000   28.593363352    77.105453058    167.8401   5   8   4.6170   4.5512  11.9800   0.8093   -3.4811   3.1908  0.00    0.0
2026/01/01 06:06:23.000   28.593340769    77.105435617    167.9299   5   7   4.6665   4.6360  12.3987   0.8313   -3.4912   3.1610  0.00    0.0
2026/01/01 06:06:24.000   28.593317863    77.105417868    167.8531   5   9   4.6815   4.5955  12.1560   0.8462   -3.4669   3.0930  0.00    0.0
2026/01/01 06:06:25.000   28.593294670    77.105399762    167.6242   5   9   4.6685   4.5341  12.2676   0.8556   -3.4810   3.1571  0.00    0.0
2026/01/01 06:06:26.000   28.593271148    77.105381334    167.9700   5   8   4.6517   4.5307  12.3311   0.8357   -3.4888   3.1581  0.00    0.0
2026/01/01 06:06:27.000   28.593247292    77.105362549    167.7924   5   7   4.6401   4.5787  12.4440   0.8396   -3.5026   3.1564  0.00    0.0
2026/01/01 06:06:28.000   28.593223173    77.105343452    167.7253   5   7   4.6529   4.5427  12.0968   0.8191   -3.5046   3.1653  0.00    0.0
2026/01/01 06:06:29.000   28.593198697    77.105324034    167.8047   5   9   4.5589   4.5425  12.1248   0.8535   -3.5010   3.1344  0.00    0.0
2026/01/01 06:06:30.000   28.593173897    77.105304253    167.7169   5   9   4.6277   4.5569  12.5116   0.8456   -3.5231   3.1281  0.00    0.0
2026/01/01 06:06:31.000   28.593148844    77.105284179    167.7575   5  10   4.7282   4.4886  12.6258   0.8247   -3.4519   3.1337  0.00    0.0
2026/01/01 06:06:32.000   28.593123420    77.105263760    167.6954   5   7   4.7293   4.5668  12.0198   0.8174   -3.4805   3.1639  0.00    0.0
2026/01/01 06:06:33.000   28.593097671    77.105243011    167.8514   5   7   4.6383   4.6439  12.1297   0.8539   -3.4829   3.1484  0.00    0.0
2026/01/01 06:06:34.000   28.593071647    77.105221931    168.1489   5  10   4.6561   4.5967  12.5309   0.8357   -3.5013   3.1248  0.00    0.0
2026/01/01 06:06:35.000   28.593045335    77.105200532    167.7128   5   9   4.7020   4.6031  12.0294   0.8459   -3.5049   3.1251  0.00    0.0
2026/01/01 06:06:36.000   28.593018666    77.105178804    167.4379   5   9   4.6933   4.6179  11.6023   0.8244   -3.4620   3.1225  0.00    0.0
2026/01/01 06:06:37.000   28.592991732    77.105156717    167.5723   5   8   4.7152   4.6062  12.0428   0.8409   -3.4566   3.1451  0.00    0.0
2026/01/01 06:06:38.000   28.592964407    77.105134290    167.5184   5  10   4.7342   4.5587  12.0102   0.8167   -3.4980   3.1461  0.00    0.0
2026/01/01 06:06:39.000   28.592936842    77.105111573    167.5955   5   7   4.6364   4.6029  12.1944   0.8431   -3.4797   3.1145  0.00    0.0
2026/01/01 06:06:40.000   28.592908972    77.105088546    168.0463   5   9   4.6357   4.4327  12.4558   0.8065   -3.4707   3.1213  0.00    0.0
2026/01/01 06:06:41.000   28.592880764    77.105065160    167.4459   5   8   4.6181   4.5509  12.2727   0.8141   -3.5009   3.1309  0.00    0.0
2026/01/01 06:06:42.000   28.592852286    77.105041459    167.5313   5   8   4.6725   4.5811  12.4131   0.8365   -3.4661   3.1966  0.00    0.0
2026/01/01 06:06:43.000   28.592823493    77.105017437    167.5500   5   9   4.7255   4.6166  12.1971   0.8315   -3.4684   3.1776  0.00    0.0
2026/01/01 06:06:44.000   28.592794382    77.104993073    167.6212   5   7   4.6267   4.5863  12.5952   0.8203   -3.4609   3.1564  0.00    0.0
2026/01/01 06:06:45.000   28.592764927    77.104968373    167.6610   5   9   4.6453   4.6117  11.8141   0.8131   -3.4629   3.1477  0.00    0.0
2026/01/01 06:06:46.000   28.592735209    77.104943417    167.6120   5   9   4.6866   4.4893  11.9991   0.8340   -3.4704   3.1538  0.00    0.0
2026/01/01 06:06:47.000   28.592705267    77.104918039    167.6012   5   7   4.6723   4.6810  12.1434   0.8310   -3.4668   3.1592  0.00    0.0
2026/01/01 06:06:48.000   28.592674903    77.104892407    167.7701   5   7   4.6538   4.5504  12.3688   0.8162   -3.4527   3.1459  0.00    0.0
2026/01/01 06:06:49.000   28.592644325    77.104866462    167.8911   5   9   4.6848   4.5415  12.4255   0.8161   -3.5079   3.1481  0.00    0.0
2026/01/01 06:06:50.000   28.592613431    77.104840116    167.9017   5   7   4.5951   4.5708  12.5221   0.8844   -3.4631   3.1628  0.00    0.0
